{"type":"FeatureCollection","features":[{"type":"Feature","geometry":{"type":"Point","coordinates":[-118.18570500021853,33.84463900021931]},"properties":{"name":"Long Beach Police Department - North Patrol Division","addr":"4891 Atlantic Ave.","city":"Long Beach","agency":"OTHER"}},{"type":"Feature","geometry":{"type":"Point","coordinates":[-118.12666319958069,33.94136273984531]},"properties":{"name":"Downey Police Department","addr":"10911 Brookshire Ave.","city":"Downey","agency":"OTHER"}},{"type":"Feature","geometry":{"type":"Point","coordinates":[-118.09106500000887,33.94636400009005]},"properties":{"name":"California Highway Patrol - Santa Fe Springs","addr":"10051 Orr and Day Rd.","city":"Santa Fe Springs","agency":"OTHER"}},{"type":"Feature","geometry":{"type":"Point","coordinates":[-118.3543253002874,33.96147648989939]},"properties":{"name":"Inglewood Police Department","addr":"1 Manchester Blvd.","city":"Inglewood","agency":"OTHER"}},{"type":"Feature","geometry":{"type":"Point","coordinates":[-118.16755299953714,34.04469699979325]},"properties":{"name":"California Highway Patrol - East Los Angeles","addr":"1601 Corporate Center Dr.","city":"Monterey Park","agency":"OTHER"}},{"type":"Feature","geometry":{"type":"Point","coordinates":[-118.16822600005774,34.18247400011989]},"properties":{"name":"California Highway Patrol - Altadena Office","addr":"2130 Windsor Ave.","city":"Altadena","agency":"OTHER"}},{"type":"Feature","geometry":{"type":"Point","coordinates":[-117.86545129955267,34.1350576100149]},"properties":{"name":"Glendora Police Department","addr":"150 S Glendora Ave","city":"Glendora","agency":"OTHER"}},{"type":"Feature","geometry":{"type":"Point","coordinates":[-118.35274299962454,33.91903400021036]},"properties":{"name":"City Of Hawthorne Police Department","addr":"12501 S. Hawthorne Blvd.","city":"Hawthorne","agency":"OTHER"}},{"type":"Feature","geometry":{"type":"Point","coordinates":[-118.19725299969836,33.76898600033899]},"properties":{"name":"City Of Long Beach Police Department","addr":"400 W. Broadway","city":"Long Beach","agency":"OTHER"}},{"type":"Feature","geometry":{"type":"Point","coordinates":[-118.39159069959335,33.79975551961947]},"properties":{"name":"City Of Palos Verdes Estates Police Department","addr":"340 Palos Verdes Dr W","city":"Palos Verdes Estates","agency":"OTHER"}},{"type":"Feature","geometry":{"type":"Point","coordinates":[-117.88900599988848,34.089778999641155]},"properties":{"name":"City Of Covina Police Department","addr":"444 N. Citrus Ave.","city":"Covina","agency":"OTHER"}},{"type":"Feature","geometry":{"type":"Point","coordinates":[-118.5901379999075,34.176252000212955]},"properties":{"name":"California Highway Patrol - West Valley","addr":"5825 De Soto Ave.","city":"Woodland Hills","agency":"OTHER"}},{"type":"Feature","geometry":{"type":"Point","coordinates":[-118.3917750003843,33.980753999842165]},"properties":{"name":"California Highway Patrol - West Los Angeles","addr":"6300 Bristol Park","city":"Culver City","agency":"OTHER"}},{"type":"Feature","geometry":{"type":"Point","coordinates":[-118.28561100008508,33.85177799994887]},"properties":{"name":"California Highway Patrol - South Los Angeles","addr":"19700 Hamilton Ave.","city":"Torrance","agency":"OTHER"}},{"type":"Feature","geometry":{"type":"Point","coordinates":[-118.4386240003746,34.28277999967682]},"properties":{"name":"City Of San Fernando Police Department","addr":"910 First St.","city":"San Fernando","agency":"OTHER"}},{"type":"Feature","geometry":{"type":"Point","coordinates":[-118.21563100015534,33.79048500012962]},"properties":{"name":"Long Beach Police Department - West Patrol Division","addr":"1835 Santa Fe Ave.","city":"Long Beach","agency":"OTHER"}},{"type":"Feature","geometry":{"type":"Point","coordinates":[-118.19725299969836,33.76898600033899]},"properties":{"name":"Long Beach Police Department - South Patrol Division","addr":"400 W. Broadway","city":"Long Beach","agency":"OTHER"}},{"type":"Feature","geometry":{"type":"Point","coordinates":[-118.30763749974915,33.88372657042623]},"properties":{"name":"City Of Gardena Police Department","addr":"1718 W 162Nd St","city":"Gardena","agency":"OTHER"}},{"type":"Feature","geometry":{"type":"Point","coordinates":[-117.96958200025189,34.06571599956468]},"properties":{"name":"California Highway Patrol - Baldwin Park","addr":"14039 Francisquito Ave.","city":"Baldwin Park","agency":"OTHER"}},{"type":"Feature","geometry":{"type":"Point","coordinates":[-118.38756699960588,33.83836299985036]},"properties":{"name":"Redondo Beach Police Department - Pier Sub Station","addr":"133 W. Torrance Blvd.","city":"Redondo Beach","agency":"OTHER"}},{"type":"Feature","geometry":{"type":"Point","coordinates":[-118.38843100042324,33.8453079995813]},"properties":{"name":"City Of Redondo Beach Police Department","addr":"401 Diamond St.","city":"Redondo Beach","agency":"OTHER"}},{"type":"Feature","geometry":{"type":"Point","coordinates":[-118.13781999999637,33.79286500023166]},"properties":{"name":"Long Beach Police Department - East Patrol Division","addr":"4800 Los Coyotes Diagonal","city":"Long Beach","agency":"OTHER"}},{"type":"Feature","geometry":{"type":"Point","coordinates":[-118.16754800041072,34.704497000332736]},"properties":{"name":"California Highway Patrol - Antelope Valley","addr":"2041 W Ave I","city":"Lancaster","agency":"OTHER"}},{"type":"Feature","geometry":{"type":"Point","coordinates":[-118.24886899949364,34.14692699966324]},"properties":{"name":"City Of Glendale Police Department","addr":"131 N. Isabel St.","city":"Glendale","agency":"OTHER"}},{"type":"Feature","geometry":{"type":"Point","coordinates":[-118.27552300018027,34.03613200044201]},"properties":{"name":"California Highway Patrol - Central Los Angeles","addr":"777 W. Washington Blvd.","city":"Los Angeles","agency":"OTHER"}},{"type":"Feature","geometry":{"type":"Point","coordinates":[-118.30891440016357,34.182898630042395]},"properties":{"name":"Burbank Police Department","addr":"200 N. Third St.","city":"Burbank","agency":"OTHER"}},{"type":"Feature","geometry":{"type":"Point","coordinates":[-118.21892300014625,33.97996299961284]},"properties":{"name":"City Of Huntington Park Police Department","addr":"6542 Miles Ave.","city":"Huntington Park","agency":"OTHER"}},{"type":"Feature","geometry":{"type":"Point","coordinates":[-118.00006100049107,34.14794900003607]},"properties":{"name":"City Of Monrovia Police Department","addr":"140 E. Lime Ave.","city":"Monrovia","agency":"OTHER"}},{"type":"Feature","geometry":{"type":"Point","coordinates":[-118.49038740023121,34.012944579610746]},"properties":{"name":"City Of Santa Monica Police Department","addr":"333 Olympic Blvd","city":"Santa Monica","agency":"OTHER"}},{"type":"Feature","geometry":{"type":"Point","coordinates":[-118.21309099987683,34.04475800004173]},"properties":{"name":"Los Angeles Police Department - Hollenbeck Community Police Station","addr":"2111 E. 1st. St.","city":"Los Angeles","agency":"LAPD"}},{"type":"Feature","geometry":{"type":"Point","coordinates":[-118.44638600006954,34.18357299999768]},"properties":{"name":"Los Angeles Police Department - Van Nuys Community Police Station","addr":"6240 Sylmar Ave.","city":"Van Nuys","agency":"LAPD"}},{"type":"Feature","geometry":{"type":"Point","coordinates":[-117.96012399993504,34.08523100023526]},"properties":{"name":"City Of Baldwin Park Police Department","addr":"14403 E. Pacific Ave.","city":"Baldwin Park","agency":"OTHER"}},{"type":"Feature","geometry":{"type":"Point","coordinates":[-118.3950970003401,34.02066900003436]},"properties":{"name":"City Of Culver City Police Department","addr":"4040 Duquesne Ave.","city":"Culver City","agency":"OTHER"}},{"type":"Feature","geometry":{"type":"Point","coordinates":[-118.30503000048205,34.01067099965537]},"properties":{"name":"Los Angeles Police Department - Southwest Community Police Station","addr":"1546 W. Martin Luther King Jr. Blvd.","city":"Los Angeles","agency":"LAPD"}},{"type":"Feature","geometry":{"type":"Point","coordinates":[-118.5318310001847,34.25642600023615]},"properties":{"name":"Los Angeles Police Department - Devonshire Community Police Station","addr":"10250 Etiwanda Ave.","city":"Northridge","agency":"LAPD"}},{"type":"Feature","geometry":{"type":"Point","coordinates":[-118.29143899965287,34.04981700041532]},"properties":{"name":"Los Angeles Police Department - Olympic Community Police Station","addr":"1130 S. Vermont Ave.","city":"Los Angeles","agency":"LAPD"}},{"type":"Feature","geometry":{"type":"Point","coordinates":[-118.2440300001269,34.05234099964688]},"properties":{"name":"City Of Los Angeles Police Department - Headquarters","addr":"100 W. 1st St.","city":"Los Angeles","agency":"LAPD"}},{"type":"Feature","geometry":{"type":"Point","coordinates":[-118.41083450005091,34.252970529749625]},"properties":{"name":"Los Angeles Police Department - Foothill Community Police Station","addr":"12760 Osborne St","city":"Pacoima","agency":"LAPD"}},{"type":"Feature","geometry":{"type":"Point","coordinates":[-118.24730700049444,34.04382699956657]},"properties":{"name":"Los Angeles Police Department - Central Community Police Station","addr":"251 E. 6th St.","city":"Los Angeles","agency":"LAPD"}},{"type":"Feature","geometry":{"type":"Point","coordinates":[-117.7708369999441,34.10082400020791]},"properties":{"name":"City Of La Verne Police Department","addr":"2061 Third St.","city":"La Verne","agency":"OTHER"}},{"type":"Feature","geometry":{"type":"Point","coordinates":[-118.11643099974007,34.020269000417]},"properties":{"name":"City Of Montebello Police Department","addr":"1600 W. Beverly Blvd.","city":"Montebello","agency":"OTHER"}},{"type":"Feature","geometry":{"type":"Point","coordinates":[-117.93807900029276,34.072022999615996]},"properties":{"name":"City Of West Covina Police Department","addr":"1444 W. Garvey Ave.","city":"West Covina","agency":"OTHER"}},{"type":"Feature","geometry":{"type":"Point","coordinates":[-117.93401299964263,34.10419499978618]},"properties":{"name":"City Of Irwindale Police Department","addr":"5050 N. Irwindale Ave.","city":"Irwindale","agency":"OTHER"}},{"type":"Feature","geometry":{"type":"Point","coordinates":[-118.38586299995879,34.17198599963482]},"properties":{"name":"Los Angeles Police Department - North Hollywood Community Police Station","addr":"11640 Burbank Blvd.","city":"North Hollywood","agency":"LAPD"}},{"type":"Feature","geometry":{"type":"Point","coordinates":[-118.24932700020524,34.11859699972434]},"properties":{"name":"Los Angeles Police Department - Northeast Community Police Station","addr":"3353 San Fernando Rd.","city":"Los Angeles","agency":"LAPD"}},{"type":"Feature","geometry":{"type":"Point","coordinates":[-118.59891599970395,34.22104300038604]},"properties":{"name":"Los Angeles Police Department - Topanga Community Police Station","addr":"21501 Schoenborn St.","city":"Canoga Park","agency":"LAPD"}},{"type":"Feature","geometry":{"type":"Point","coordinates":[-118.34241799968312,33.839989999839936]},"properties":{"name":"City Of Torrance Community Services Dept","addr":"3300 Civic Center Dr.","city":"Torrance","agency":"OTHER"}},{"type":"Feature","geometry":{"type":"Point","coordinates":[-118.10572799994405,34.12122300032919]},"properties":{"name":"City Of San Marino Police Department","addr":"2200 Huntington Dr.","city":"San Marino","agency":"OTHER"}},{"type":"Feature","geometry":{"type":"Point","coordinates":[-118.05844100019613,34.161588000123075]},"properties":{"name":"City Of Sierra Madre Police Department","addr":"242 W. Sierra Madre Blvd.","city":"Sierra Madre","agency":"OTHER"}},{"type":"Feature","geometry":{"type":"Point","coordinates":[-118.25630199973736,34.01256399976493]},"properties":{"name":"Los Angeles Police Department - Newton Community Police Station","addr":"3400 S. Central Ave.","city":"Los Angeles","agency":"LAPD"}},{"type":"Feature","geometry":{"type":"Point","coordinates":[-118.26977400043631,33.771490000002366]},"properties":{"name":"Los Angeles Police Department - Harbor Community Police Station","addr":"221 Bayview Ave.","city":"Wilmington","agency":"LAPD"}},{"type":"Feature","geometry":{"type":"Point","coordinates":[-118.34268999997917,34.04657099992134]},"properties":{"name":"Los Angeles Police Department - Wilshire Community Police Station","addr":"4861 W. Venice Blvd.","city":"Los Angeles","agency":"LAPD"}},{"type":"Feature","geometry":{"type":"Point","coordinates":[-118.46772899967284,34.272596999983115]},"properties":{"name":"Los Angeles Police Department - Mission Community Police Station","addr":"11121 Sepulveda Blvd.","city":"Mission Hills","agency":"LAPD"}},{"type":"Feature","geometry":{"type":"Point","coordinates":[-118.03050400043807,34.07093399967008]},"properties":{"name":"City Of El Monte Police Department","addr":"11333 E. Valley Blvd.","city":"El Monte","agency":"OTHER"}},{"type":"Feature","geometry":{"type":"Point","coordinates":[-118.40031199976856,34.072660000213126]},"properties":{"name":"City Of Beverly Hills Police Department","addr":"464 N. Rexford Dr.","city":"Beverly Hills","agency":"OTHER"}},{"type":"Feature","geometry":{"type":"Point","coordinates":[-117.75426700003402,34.05487100007405]},"properties":{"name":"City Of Pomona Police Department","addr":"490 W. Mission Blvd.","city":"Pomona","agency":"OTHER"}},{"type":"Feature","geometry":{"type":"Point","coordinates":[-118.09973699951583,34.09486099973996]},"properties":{"name":"City Of San Gabriel Police Department","addr":"625 S. Del Mar Ave.","city":"San Gabriel","agency":"OTHER"}},{"type":"Feature","geometry":{"type":"Point","coordinates":[-118.39602799949178,33.86435000026514]},"properties":{"name":"City Of Hermosa Beach Police Department","addr":"540 Pier Ave.","city":"Hermosa Beach","agency":"OTHER"}},{"type":"Feature","geometry":{"type":"Point","coordinates":[-118.231439999983,34.00493899997478]},"properties":{"name":"City Of Vernon Police Department","addr":"4305 S. Santa Fe Ave.","city":"Vernon","agency":"OTHER"}},{"type":"Feature","geometry":{"type":"Point","coordinates":[-118.14484899958822,34.149215999995825]},"properties":{"name":"City Of Pasadena Police Department","addr":"207 N. Garfield Ave.","city":"Pasadena","agency":"OTHER"}},{"type":"Feature","geometry":{"type":"Point","coordinates":[-118.27803499986187,33.97061299971491]},"properties":{"name":"Los Angeles Police Department - 77Th St. Community Police Station","addr":"7600 S. Broadway","city":"Los Angeles","agency":"LAPD"}},{"type":"Feature","geometry":{"type":"Point","coordinates":[-118.54743200002372,34.19369499983726]},"properties":{"name":"Los Angeles Police Department - West Valley Community Police Station","addr":"19020 Vanowen St.","city":"Reseda","agency":"LAPD"}},{"type":"Feature","geometry":{"type":"Point","coordinates":[-117.72247500039104,34.09638999982901]},"properties":{"name":"City Of Claremont Police Department","addr":"570 W. Bonita Ave.","city":"Claremont","agency":"OTHER"}},{"type":"Feature","geometry":{"type":"Point","coordinates":[-118.12593499960529,34.0596659998821]},"properties":{"name":"City Of Monterey Park Police Department","addr":"320 W. Newmark Ave.","city":"Monterey Park","agency":"OTHER"}},{"type":"Feature","geometry":{"type":"Point","coordinates":[-118.0864070003312,33.94702399967926]},"properties":{"name":"City Of Whittier Police Department - Police Services Center - Santa Fe Springs","addr":"11576 Telegraph Rd.","city":"Santa Fe Springs","agency":"OTHER"}},{"type":"Feature","geometry":{"type":"Point","coordinates":[-118.2052319996428,33.95569100009334]},"properties":{"name":"City Of South Gate Police Department","addr":"8620 California Ave.","city":"South Gate","agency":"OTHER"}},{"type":"Feature","geometry":{"type":"Point","coordinates":[-118.45069699951105,34.043845999695606]},"properties":{"name":"Los Angeles Police Department - West Los Angeles Community Police Station","addr":"1663 Butler Ave.","city":"Los Angeles","agency":"LAPD"}},{"type":"Feature","geometry":{"type":"Point","coordinates":[-118.33083800037446,34.09563000034036]},"properties":{"name":"Los Angeles Police Department - Hollywood Community Police Station","addr":"1358 N. Wilcox Ave.","city":"Los Angeles","agency":"LAPD"}},{"type":"Feature","geometry":{"type":"Point","coordinates":[-117.90638700045132,34.13413700029381]},"properties":{"name":"City Of Azusa Police Department","addr":"725 N. Alameda Ave.","city":"Azusa","agency":"OTHER"}},{"type":"Feature","geometry":{"type":"Point","coordinates":[-118.15041399988371,33.967194999951644]},"properties":{"name":"City Of Bell Gardens Police Department","addr":"7100 S. Garfield Ave.","city":"Bell Gardens","agency":"OTHER"}},{"type":"Feature","geometry":{"type":"Point","coordinates":[-118.42021799962737,33.99152799979383]},"properties":{"name":"Los Angeles Police Department - Pacific Community Police Station","addr":"12312 Culver Blvd.","city":"Los Angeles","agency":"LAPD"}},{"type":"Feature","geometry":{"type":"Point","coordinates":[-118.27544500024545,33.93843800038559]},"properties":{"name":"Los Angeles Police Department - Southeast Community Police Station","addr":"145 W. 108th St.","city":"Los Angeles","agency":"LAPD"}},{"type":"Feature","geometry":{"type":"Point","coordinates":[-118.26745799974287,34.05647899986446]},"properties":{"name":"Los Angeles Police Department - Rampart Community Police Station","addr":"1401 W. 6th St.","city":"Los Angeles","agency":"LAPD"}},{"type":"Feature","geometry":{"type":"Point","coordinates":[-118.03492360032861,33.97539537005593]},"properties":{"name":"City Of Whittier Police Department","addr":"13200 Penn St","city":"Whittier","agency":"OTHER"}},{"type":"Feature","geometry":{"type":"Point","coordinates":[-118.41578299973068,33.919925999820606]},"properties":{"name":"City Of El Segundo Police Department","addr":"348 Main St.","city":"El Segundo","agency":"OTHER"}},{"type":"Feature","geometry":{"type":"Point","coordinates":[-118.0888921004111,33.98191470016284]},"properties":{"name":"Pico Rivera Sheriff's Station","addr":"6631 S. Passons Blvd.","city":"Pico Rivera","agency":"LASD"}},{"type":"Feature","geometry":{"type":"Point","coordinates":[-118.06941899969388,33.91411700019041]},"properties":{"name":"Norwalk Sheriff's Station","addr":"12335 Civic Center Dr.","city":"Norwalk","agency":"LASD"}},{"type":"Feature","geometry":{"type":"Point","coordinates":[-117.9587890001214,34.02495599993217]},"properties":{"name":"Industry Sheriff\u00e2\u20ac\u2122s Station","addr":"150 Hudson Avenue","city":"Industry","agency":"LASD"}},{"type":"Feature","geometry":{"type":"Point","coordinates":[-118.06592166036448,33.86633132019998]},"properties":{"name":"Cerritos Sheriff\u00e2\u20ac\u2122s Station","addr":"18135 S. Bloomfield Ave.","city":"Cerritos","agency":"LASD"}},{"type":"Feature","geometry":{"type":"Point","coordinates":[-118.15239099982335,34.11595499985509]},"properties":{"name":"City Of South Pasadena Police Department","addr":"1422 Mission St.","city":"South Pasadena","agency":"OTHER"}},{"type":"Feature","geometry":{"type":"Point","coordinates":[-118.15780800009472,34.034209999704515]},"properties":{"name":"East Los Angeles Sheriff\u00e2\u20ac\u2122s Station","addr":"5019 East 3rd St","city":"East Los Angeles","agency":"LASD"}},{"type":"Feature","geometry":{"type":"Point","coordinates":[-118.13317693969108,33.85140585986495]},"properties":{"name":"Lakewood Sheriff\u00e2\u20ac\u2122s Station","addr":"5130 N. Clark Ave.","city":"Lakewood","agency":"LASD"}},{"type":"Feature","geometry":{"type":"Point","coordinates":[-118.07603359037802,34.102831609624616]},"properties":{"name":"Temple Sheriff's Station","addr":"8838 E. Las Tunas Dr.","city":"Temple City","agency":"LASD"}},{"type":"Feature","geometry":{"type":"Point","coordinates":[-118.22444290001971,33.894081599712514]},"properties":{"name":"Compton Sheriff\u00e2\u20ac\u2122s Station","addr":"301 S. Willowbrook Ave.","city":"Compton","agency":"LASD"}},{"type":"Feature","geometry":{"type":"Point","coordinates":[-118.29821700046267,33.930132999624846]},"properties":{"name":"South Los Angeles Sheriff's Station","addr":"1310 W. Imperial Hwy.","city":"Los Angeles","agency":"LASD"}},{"type":"Feature","geometry":{"type":"Point","coordinates":[-118.32706071042772,33.34310551962283]},"properties":{"name":"Avalon Sheriff's Station","addr":"215 Sumner Ave.","city":"Avalon","agency":"LASD"}},{"type":"Feature","geometry":{"type":"Point","coordinates":[-118.2630103801854,33.83449494032785]},"properties":{"name":"Carson Sheriff\u00e2\u20ac\u2122s Station","addr":"21356 S. Avalon Blvd.","city":"Carson","agency":"LASD"}},{"type":"Feature","geometry":{"type":"Point","coordinates":[-118.60214150003286,34.440235689632736]},"properties":{"name":"California Highway Patrol - Newhall","addr":"28648 The Old Road","city":"Valencia","agency":"OTHER"}},{"type":"Feature","geometry":{"type":"Point","coordinates":[-118.35113089979546,34.135642800332505]},"properties":{"name":"Universal Citywalk Substation","addr":"1000 Universal Studios Blvd., Bldg. 4505M","city":"Universal City","agency":"OTHER"}},{"type":"Feature","geometry":{"type":"Point","coordinates":[-118.13254499989249,34.18963599973123]},"properties":{"name":"Altadena Sheriff\u00e2\u20ac\u2122s Station","addr":"780 E. Altadena Dr.","city":"Altadena","agency":"LASD"}},{"type":"Feature","geometry":{"type":"Point","coordinates":[-118.40928196963097,33.886956390146686]},"properties":{"name":"Manhattan Beach Police Department","addr":"420 15th St","city":"Manhattan Beach","agency":"OTHER"}},{"type":"Feature","geometry":{"type":"Point","coordinates":[-118.35482260003451,33.96308425019032]},"properties":{"name":"City Of Inglewood Police Department","addr":"1 W Manchester Blvd","city":"Inglewood","agency":"OTHER"}},{"type":"Feature","geometry":{"type":"Point","coordinates":[-118.32055448949626,33.78544296981938]},"properties":{"name":"Lomita Sheriff's Station","addr":"26123 S. Narbonne Ave.","city":"Lomita","agency":"LASD"}},{"type":"Feature","geometry":{"type":"Point","coordinates":[-118.50374899961018,34.4068389998235]},"properties":{"name":"Santa Clarita Valley Sheriff's Station","addr":"26201 Golden Valley Road","city":"Santa Clarita","agency":"LASD"}},{"type":"Feature","geometry":{"type":"Point","coordinates":[-118.30846739978233,34.1828521499956]},"properties":{"name":"City Of Burbank Police Department","addr":"200 N 3Rd St","city":"Burbank","agency":"OTHER"}},{"type":"Feature","geometry":{"type":"Point","coordinates":[-118.23712200013317,33.92883299955698]},"properties":{"name":"Los Angeles County Sheriff's Transit Services Bureau","addr":"2000 Imperial Hwy","city":"Los Angeles","agency":"LASD"}},{"type":"Feature","geometry":{"type":"Point","coordinates":[-117.80217000007023,34.10482700022206]},"properties":{"name":"San Dimas Sheriff's Station","addr":"270 S Walnut Ave","city":"San Dimas","agency":"LASD"}},{"type":"Feature","geometry":{"type":"Point","coordinates":[-118.34428400048404,33.891544999852414]},"properties":{"name":"Lawndale Sheriff's Service Center","addr":"15331 Prairie Ave.","city":"Lawndale","agency":"LASD"}},{"type":"Feature","geometry":{"type":"Point","coordinates":[-118.13781000043313,34.698974999888485]},"properties":{"name":"Lancaster Sheriff's Station","addr":"501 W. Lancaster Blvd.","city":"Lancaster","agency":"LASD"}},{"type":"Feature","geometry":{"type":"Point","coordinates":[-118.71418475979476,34.137356750026456]},"properties":{"name":"Malibu/Lost Hills Sheriff's Station","addr":"27050 Agoura Rd.","city":"Calabasas","agency":"LASD"}},{"type":"Feature","geometry":{"type":"Point","coordinates":[-118.22737455001395,33.92770247012285]},"properties":{"name":"Century Sheriff\u00e2\u20ac\u2122s Station","addr":"11703 S. Alameda St.","city":"Lynwood","agency":"LASD"}},{"type":"Feature","geometry":{"type":"Point","coordinates":[-118.11700702010694,34.58624495044737]},"properties":{"name":"Palmdale Sheriff's Station","addr":"750 East Ave. Q","city":"Palmdale","agency":"LASD"}},{"type":"Feature","geometry":{"type":"Point","coordinates":[-118.12765499959723,33.94091481983827]},"properties":{"name":"City Of Downey Police Department","addr":"10911 Brookshire Ave","city":"Downey","agency":"OTHER"}},{"type":"Feature","geometry":{"type":"Point","coordinates":[-118.03989350999855,34.136637450118556]},"properties":{"name":"Arcadia Police Department","addr":"250 W. Huntington Dr.","city":"Arcadia","agency":"OTHER"}},{"type":"Feature","geometry":{"type":"Point","coordinates":[-118.23034644008955,34.2210333499019]},"properties":{"name":"Crescenta Valley Sheriff\u00e2\u20ac\u2122s Station","addr":"4554 N. Briggs","city":"La Crescenta","agency":"LASD"}},{"type":"Feature","geometry":{"type":"Point","coordinates":[-118.44618899976055,33.97050700040348]},"properties":{"name":"Marina Del Rey Sheriff's Station","addr":"13851 Fiji Way","city":"Marina Del Rey","agency":"LASD"}},{"type":"Feature","geometry":{"type":"Point","coordinates":[-117.80213699956852,34.10481300040575]},"properties":{"name":"San Dimas Sheriff Station","addr":"270 South Walnut Avenue","city":"San Dimas","agency":"LASD"}},{"type":"Feature","geometry":{"type":"Point","coordinates":[-118.18879279980648,33.9795201298796]},"properties":{"name":"City Of Bell Police Department","addr":"6326 Pine Ave","city":"Bell","agency":"OTHER"}},{"type":"Feature","geometry":{"type":"Point","coordinates":[-118.4493901003699,34.057009520086375]},"properties":{"name":"United States Department Of Justice - Federal Bureau Of Investigation - Los Angeles Field Office","addr":"11000 Wilshire Blvd","city":"Los Angeles","agency":"OTHER"}},{"type":"Feature","geometry":{"type":"Point","coordinates":[-117.8343118905249,34.028855839908815]},"properties":{"name":"Walnut/Diamond Bar Sheriff's Station","addr":"21695 Valley Blvd.","city":"Walnut","agency":"LASD"}},{"type":"Feature","geometry":{"type":"Point","coordinates":[-118.38337200014051,34.08434300005721]},"properties":{"name":"West Hollywood Sheriff's Station","addr":"780 North San Vicente Boulevard","city":"Los Angeles","agency":"LASD"}},{"type":"Feature","geometry":{"type":"Point","coordinates":[-118.18846600034061,33.97924100031981]},"properties":{"name":"Bell Police Department","addr":"6326 Pine Ave.","city":"Bell","agency":"OTHER"}},{"type":"Feature","geometry":{"type":"Point","coordinates":[-118.17244970048691,33.806860399713585]},"properties":{"name":"City Of Signal Hill Police Department","addr":"2745 Walnut Ave","city":"Signal Hill","agency":"OTHER"}},{"type":"Feature","geometry":{"type":"Point","coordinates":[-118.12662946950074,34.091933610048336]},"properties":{"name":"Alhambra Police Department","addr":"211 S. First St.","city":"Alhambra","agency":"OTHER"}},{"type":"Feature","geometry":{"type":"Point","coordinates":[-118.22737705017545,34.14615310036976]},"properties":{"name":"California Highway Patrol - Los Angeles Communications Center","addr":"2901 W. Broadway","city":"Los Angeles","agency":"OTHER"}}]}